{"type":"FeatureCollection", "features": [
{"type":"Feature","geometry":{"type":"Point","coordinates":[876377.5126226669,2979239.2840997055]},"properties":{"name":"广州市","name_ENG":"Guangzhou","Province":"广东省","Province_E":"Guangdong Province"}},
{"type":"Feature","geometry":{"type":"Point","coordinates":[353711.7817870633,2902793.0818827925]},"properties":{"name":"南宁市","name_ENG":"Nanning","Province":"广西壮族自治区","Province_E":"Guangxi Zhuang Autonomous Region"}},
{"type":"Feature","geometry":{"type":"Point","coordinates":[591874.093396326,2593092.597364174]},"properties":{"name":"海口市","name_ENG":"Haikou","Province":"海南省","Province_E":"Hainan Province"}},
{"type":"Feature","geometry":{"type":"Point","coordinates":[173208.1463801338,3327283.4202247728]},"properties":{"name":"贵阳市","name_ENG":"Guiyang","Province":"贵州省","Province_E":"Guizhou Province"}},
{"type":"Feature","geometry":{"type":"Point","coordinates":[-237090.9500481999,3155112.458177287]},"properties":{"name":"昆明市","name_ENG":"Kunming","Province":"云南省","Province_E":"Yunnan Province"}},
{"type":"Feature","geometry":{"type":"Point","coordinates":[1454184.6171420033,3396842.239621425]},"properties":{"name":"福州市","name_ENG":"Fuzhou","Province":"福建省","Province_E":"Fujian Province"}},
{"type":"Feature","geometry":{"type":"Point","coordinates":[1697703.08695415,3331285.8083341327]},"properties":{"name":"台北市","name_ENG":"Taipei","Province":"台湾省","Province_E":"Taiwan Province"}},
{"type":"Feature","geometry":{"type":"Point","coordinates":[-1337692.855547632,3787313.0665837303]},"properties":{"name":"拉萨市","name_ENG":"Lhasa","Province":"西藏自治区","Province_E":"Tibet Autonomous Region"}},
{"type":"Feature","geometry":{"type":"Point","coordinates":[140248.202393907,3663367.041583794]},"properties":{"name":"重庆市","name_ENG":"Chongqing","Province":"重庆市","Province_E":"Chongqing Municipality"}},
{"type":"Feature","geometry":{"type":"Point","coordinates":[-88114.86388665065,3780036.8083519908]},"properties":{"name":"成都市","name_ENG":"Chengdu","Province":"四川省","Province_E":"Sichuan Province"}},
{"type":"Feature","geometry":{"type":"Point","coordinates":[788804.258553599,3547044.514509714]},"properties":{"name":"长沙市","name_ENG":"Changsha","Province":"湖南省","Province_E":"Hunan Province"}},
{"type":"Feature","geometry":{"type":"Point","coordinates":[1147675.847729539,4003240.554589212]},"properties":{"name":"合肥市","name_ENG":"Hefei","Province":"安徽省","Province_E":"Anhui Province"}},
{"type":"Feature","geometry":{"type":"Point","coordinates":[885163.1108111037,3824606.972469899]},"properties":{"name":"武汉市","name_ENG":"Wuhan","Province":"湖北省","Province_E":"Hubei Province"}},
{"type":"Feature","geometry":{"type":"Point","coordinates":[1068502.2449924883,3634416.1812126935]},"properties":{"name":"南昌市","name_ENG":"Nanchang","Province":"江西省","Province_E":"Jiangxi Province"}},
{"type":"Feature","geometry":{"type":"Point","coordinates":[1548247.2581758283,4006313.6031519966]},"properties":{"name":"上海市","name_ENG":"Shanghai","Province":"上海市","Province_E":"Shanghai Municipality"}},
{"type":"Feature","geometry":{"type":"Point","coordinates":[1448258.6866510191,3880362.565653461]},"properties":{"name":"杭州市","name_ENG":"Hangzhou","Province":"浙江省","Province_E":"Zhejiang Province"}},
{"type":"Feature","geometry":{"type":"Point","coordinates":[356877.5763262152,4185367.151462677]},"properties":{"name":"西安市","name_ENG":"Xi'an","Province":"陕西省","Province_E":"Shaanxi Province"}},
{"type":"Feature","geometry":{"type":"Point","coordinates":[774752.3169059074,4272601.149698593]},"properties":{"name":"郑州市","name_ENG":"Zhengzhou","Province":"河南省","Province_E":"Henan Province"}},
{"type":"Feature","geometry":{"type":"Point","coordinates":[1282246.8952767723,4046723.362384868]},"properties":{"name":"南京市","name_ENG":"Nanjing","Province":"江苏省","Province_E":"Jiangsu Province"}},
{"type":"Feature","geometry":{"type":"Point","coordinates":[-280621.15195642045,4436592.661425487]},"properties":{"name":"西宁市","name_ENG":"Xining","Province":"青海省","Province_E":"Qinghai Province"}},
{"type":"Feature","geometry":{"type":"Point","coordinates":[107933.65832356158,4632408.295397824]},"properties":{"name":"银川市","name_ENG":"Yinchuan","Province":"宁夏回族自治区","Province_E":"Ningxia Hui Autonomous Region"}},
{"type":"Feature","geometry":{"type":"Point","coordinates":[937084.2587613263,4857031.46529758]},"properties":{"name":"北京市","name_ENG":"Beijing","Province":"北京市","Province_E":"Beijing Municipality"}},
{"type":"Feature","geometry":{"type":"Point","coordinates":[807505.8458567462,4634619.024925405]},"properties":{"name":"石家庄市","name_ENG":"Shijiazhuang","Province":"河北省","Province_E":"Hebei Province"}},
{"type":"Feature","geometry":{"type":"Point","coordinates":[1017339.1361971124,4782758.785070468]},"properties":{"name":"天津市","name_ENG":"Tianjin","Province":"天津市","Province_E":"Tianjin Municipality"}},
{"type":"Feature","geometry":{"type":"Point","coordinates":[-1336441.3368058044,5351207.82391177]},"properties":{"name":"乌鲁木齐市","name_ENG":"Urumqi","Province":"新疆维吾尔自治区","Province_E":"Xinjiang Uygur Autonomous Region"}},
{"type":"Feature","geometry":{"type":"Point","coordinates":[542557.1327643199,4907057.269859081]},"properties":{"name":"呼和浩特市","name_ENG":"Hohhot","Province":"内蒙古自治区","Province_E":"Inner Mongolia Autonomous Region"}},
{"type":"Feature","geometry":{"type":"Point","coordinates":[1553061.667323724,5414526.294124313]},"properties":{"name":"长春市","name_ENG":"Changchun","Province":"吉林省","Province_E":"Jilin Province"}},
{"type":"Feature","geometry":{"type":"Point","coordinates":[1463489.9222978347,5160686.651628325]},"properties":{"name":"沈阳市","name_ENG":"Shenyang","Province":"辽宁省","Province_E":"Liaoning Province"}},
{"type":"Feature","geometry":{"type":"Point","coordinates":[1598705.7099524755,5632846.675057067]},"properties":{"name":"哈尔滨市","name_ENG":"Harbin","Province":"黑龙江省","Province_E":"Heilongjiang Province"}}
]}